{
"type": "FeatureCollection",
"crs": { "type": "name", "properties": { "name": "urn:ogc:def:crs:OGC:1.3:CRS84" } },
                                                                                
"features": [
{ "type": "Feature", "properties": { "OBJECTID": 7, "GIS_ID": "nhood_102", "NAME": "Petworth", "WEB_URL": "http:\/\/op.dc.gov", "LABEL_NAME": "Petworth", "DATELASTMO": "2003-04-10T00:00:00.000Z" }, "geometry": { "type": "Point", "coordinates": [ -77.024017328166977, 38.943039128222921 ] } },
{ "type": "Feature", "properties": { "OBJECTID": 14, "GIS_ID": "nhood_016", "NAME": "Brookland", "WEB_URL": "http:\/\/op.dc.gov", "LABEL_NAME": "Brookland", "DATELASTMO": "2003-04-10T00:00:00.000Z" }, "geometry": { "type": "Point", "coordinates": [ -76.984413587603044, 38.931404394992427 ] } },
{ "type": "Feature", "properties": { "OBJECTID": 17, "GIS_ID": "nhood_136", "NAME": "16th Street Heights", "WEB_URL": "http:\/\/op.dc.gov", "LABEL_NAME": "16th \r\nStreet \r\nHeights", "DATELASTMO": "2003-04-10T00:00:00.000Z" }, "geometry": { "type": "Point", "coordinates": [ -77.033558563920053, 38.950314551253243 ] } },
{ "type": "Feature", "properties": { "OBJECTID": 21, "GIS_ID": "nhood_069", "NAME": "Ivy City", "WEB_URL": "http:\/\/op.dc.gov", "LABEL_NAME": "Ivy \r\nCity", "DATELASTMO": "2003-04-10T00:00:00.000Z" }, "geometry": { "type": "Point", "coordinates": [ -76.991626886090572, 38.91038947602096 ] } },
{ "type": "Feature", "properties": { "OBJECTID": 28, "GIS_ID": "nhood_058", "NAME": "Georgetown", "WEB_URL": "http:\/\/op.dc.gov", "LABEL_NAME": "Georgetown", "DATELASTMO": "2003-04-10T00:00:00.000Z" }, "geometry": { "type": "Point", "coordinates": [ -77.064795604366424, 38.909555805689557 ] } },
{ "type": "Feature", "properties": { "OBJECTID": 30, "GIS_ID": "nhood_113", "NAME": "Waterfront", "WEB_URL": "http:\/\/op.dc.gov", "LABEL_NAME": "Southwest\/\r\nWaterfront", "DATELASTMO": "2003-04-10T00:00:00.000Z" }, "geometry": { "type": "Point", "coordinates": [ -77.016902958486369, 38.877908360755171 ] } },
{ "type": "Feature", "properties": { "OBJECTID": 32, "GIS_ID": "nhood_027", "NAME": "Chevy Chase", "WEB_URL": "http:\/\/op.dc.gov", "LABEL_NAME": "Chevy \r\nChase", "DATELASTMO": "2003-04-10T00:00:00.000Z" }, "geometry": { "type": "Point", "coordinates": [ -77.066477612865214, 38.96314646707463 ] } },
{ "type": "Feature", "properties": { "OBJECTID": 33, "GIS_ID": "nhood_054", "NAME": "Friendship Heights", "WEB_URL": "http:\/\/op.dc.gov", "LABEL_NAME": "Friendship \r\nHeights", "DATELASTMO": "2003-04-10T00:00:00.000Z" }, "geometry": { "type": "Point", "coordinates": [ -77.083854407259324, 38.956906785038107 ] } },
{ "type": "Feature", "properties": { "OBJECTID": 35, "GIS_ID": "nhood_002", "NAME": "American University Park", "WEB_URL": "http:\/\/op.dc.gov", "LABEL_NAME": "American \r\nUniversity \r\nPark", "DATELASTMO": "2003-04-10T00:00:00.000Z" }, "geometry": { "type": "Point", "coordinates": [ -77.090249571735185, 38.947611636813065 ] } },
{ "type": "Feature", "properties": { "OBJECTID": 43, "GIS_ID": "nhood_001", "NAME": "Adams Morgan", "WEB_URL": "http:\/\/op.dc.gov", "LABEL_NAME": "Adams \r\nMorgan", "DATELASTMO": "2003-04-10T00:00:00.000Z" }, "geometry": { "type": "Point", "coordinates": [ -77.042391106878881, 38.920472198513714 ] } },
{ "type": "Feature", "properties": { "OBJECTID": 44, "GIS_ID": "nhood_037", "NAME": "Dupont Circle", "WEB_URL": "http:\/\/op.dc.gov", "LABEL_NAME": "Dupont \r\nCircle", "DATELASTMO": "2003-04-10T00:00:00.000Z" }, "geometry": { "type": "Point", "coordinates": [ -77.040983705458089, 38.912128102421256 ] } },
{ "type": "Feature", "properties": { "OBJECTID": 46, "GIS_ID": "nhood_088", "NAME": "Mount Pleasant", "WEB_URL": "http:\/\/op.dc.gov", "LABEL_NAME": "Mount \r\nPleasant", "DATELASTMO": "2003-04-10T00:00:00.000Z" }, "geometry": { "type": "Point", "coordinates": [ -77.040655887411958, 38.93174149197538 ] } },
{ "type": "Feature", "properties": { "OBJECTID": 54, "GIS_ID": "nhood_091", "NAME": "Navy Yard", "WEB_URL": "http:\/\/op.dc.gov", "LABEL_NAME": "Navy \r\nYard", "DATELASTMO": "2003-04-10T00:00:00.000Z" }, "geometry": { "type": "Point", "coordinates": [ -76.998461646256658, 38.874268413431409 ] } },
{ "type": "Feature", "properties": { "OBJECTID": 69, "GIS_ID": "nhood_021", "NAME": "Capitol Hill", "WEB_URL": "http:\/\/op.dc.gov", "LABEL_NAME": "Capitol \r\nHill", "DATELASTMO": "2003-04-10T00:00:00.000Z" }, "geometry": { "type": "Point", "coordinates": [ -76.998477484850639, 38.883620756200493 ] } },
{ "type": "Feature", "properties": { "OBJECTID": 73, "GIS_ID": "nhood_122", "NAME": "Van Ness", "WEB_URL": "http:\/\/op.dc.gov", "LABEL_NAME": "Van Ness", "DATELASTMO": "2003-04-10T00:00:00.000Z" }, "geometry": { "type": "Point", "coordinates": [ -77.066106389939364, 38.943390584989061 ] } },
{ "type": "Feature", "properties": { "OBJECTID": 80, "GIS_ID": "nhood_131", "NAME": "Chinatown", "WEB_URL": "http:\/\/op.dc.gov", "LABEL_NAME": "Chinatown", "DATELASTMO": "2003-04-10T00:00:00.000Z" }, "geometry": { "type": "Point", "coordinates": [ -77.020135266724751, 38.899151198681913 ] } },
{ "type": "Feature", "properties": { "OBJECTID": 83, "GIS_ID": "nhood_116", "NAME": "Takoma", "WEB_URL": "http:\/\/op.dc.gov", "LABEL_NAME": "Takoma", "DATELASTMO": "2003-04-10T00:00:00.000Z" }, "geometry": { "type": "Point", "coordinates": [ -77.021558299338253, 38.976461594544823 ] } },
{ "type": "Feature", "properties": { "OBJECTID": 118, "GIS_ID": "nhood_066", "NAME": "Historic Anacostia", "WEB_URL": "http:\/\/op.dc.gov", "LABEL_NAME": "Historic \r\nAnacostia", "DATELASTMO": "2003-04-10T00:00:00.000Z" }, "geometry": { "type": "Point", "coordinates": [ -76.984677642784959, 38.863185708444171 ] } },
{ "type": "Feature", "properties": { "OBJECTID": 119, "GIS_ID": "nhood_080", "NAME": "Logan Circle", "WEB_URL": "http:\/\/op.dc.gov", "LABEL_NAME": "Logan Circle\/\r\nShaw", "DATELASTMO": "2003-04-10T00:00:00.000Z" }, "geometry": { "type": "Point", "coordinates": [ -77.025340374296476, 38.909816310092566 ] } }
]
}
